City_ID,City,Lat,Lng,Max Temp,Humidity,Cloudiness,Wind Speed,Country,Date
0,victoria,5.28,115.24,91.0,62,75,6.93,BN,1572758741
1,kodiak,39.95,-94.76,41.0,69,1,3.36,US,1572758682
2,aksarka,66.56,67.8,4.68,89,55,8.79,RU,1572758910
3,butaritari,3.07,172.79,84.45,76,50,16.33,KI,1572758723
4,ketchikan,55.34,-131.65,50.0,93,90,9.17,US,1572758752
5,beringovskiy,63.05,179.32,28.99,89,100,7.54,RU,1572758734
6,atuona,-9.8,-139.03,79.84,77,72,12.21,PF,1572758678
7,hilo,19.71,-155.08,80.6,74,20,5.82,US,1572758693
8,nikolskoye,59.7,30.79,36.0,93,90,11.18,RU,1572758692
9,vestmannaeyjar,63.44,-20.27,41.27,72,100,25.84,IS,1572758700
10,upernavik,72.79,-56.15,22.44,92,100,13.33,GL,1572758685
11,guadix,37.3,-3.14,59.0,87,75,9.17,ES,1572758912
12,mackenzie,55.34,-123.09,33.8,100,90,3.36,CA,1572758913
13,bluff,-23.58,149.07,86.83,40,60,17.6,AU,1572758686
14,carnarvon,-30.97,22.13,66.9,12,0,6.73,ZA,1572758637
15,douglas,58.28,-134.39,46.0,100,90,9.17,US,1572758913
16,iqaluit,63.75,-68.52,23.0,79,75,1.95,CA,1572758606
17,vaini,15.34,74.49,80.6,74,40,5.82,IN,1572758683
18,oistins,13.07,-59.53,80.6,83,40,13.87,BB,1572758914
19,ust-nera,64.57,143.24,-9.53,99,76,1.88,RU,1572758914
20,port alfred,-33.59,26.89,68.0,78,32,5.99,ZA,1572758689
21,hermanus,-34.42,19.24,60.01,91,99,1.99,ZA,1572758545
22,punta arenas,-53.16,-70.91,39.2,80,40,20.8,CL,1572758703
23,wajima,37.4,136.9,59.0,62,75,4.7,JP,1572758916
24,east london,-33.02,27.91,68.0,64,0,14.99,ZA,1572758617
25,yellowknife,62.45,-114.38,21.2,85,20,11.41,CA,1572758539
26,bay city,43.59,-83.89,37.99,80,90,11.41,US,1572758916
27,mackay,53.65,-115.58,37.4,100,90,3.36,CA,1572758917
28,severo-kurilsk,50.68,156.12,35.33,83,100,3.47,RU,1572758542
29,torbay,47.66,-52.73,44.01,93,5,4.16,CA,1572758714
30,bilma,18.69,12.92,76.21,17,0,7.47,NE,1572758917
31,lebu,8.96,38.73,62.02,48,27,8.25,ET,1572758688
32,middle island,40.88,-72.94,48.99,81,90,3.36,US,1572758918
33,souillac,45.6,-0.6,55.4,87,100,25.28,FR,1572758779
34,ushuaia,-54.81,-68.31,37.4,86,20,4.7,AR,1572758549
35,san patricio,-26.98,-56.83,75.29,84,0,7.49,PY,1572758743
36,volksrust,-27.36,29.88,76.8,26,0,2.86,ZA,1572758919
37,kapaa,22.08,-159.32,80.6,88,90,10.29,US,1572758385
38,makaryev,57.88,43.81,32.04,89,100,11.7,RU,1572758919
39,walvis bay,-22.95,14.51,64.99,63,0,6.93,NA,1572758919
40,busselton,-33.64,115.35,72.0,32,97,10.76,AU,1572758688
41,liku,-0.73,119.89,80.49,78,80,1.43,ID,1572758920
42,zhanakorgan,43.91,67.25,61.16,43,97,10.71,KZ,1572758920
43,rikitea,-23.12,-134.97,71.19,78,87,13.91,PF,1572758684
44,owando,-0.49,15.91,72.18,95,100,2.24,CG,1572758921
45,winnemucca,40.97,-117.74,34.0,33,1,8.05,US,1572758921
46,lixourion,38.2,20.43,69.98,67,17,19.93,GR,1572758921
47,kirakira,-10.46,161.92,80.76,83,56,11.48,SB,1572758921
48,kysyl-syr,63.9,122.77,32.0,88,100,9.24,RU,1572758683
49,arlit,18.74,7.39,79.65,13,11,5.97,NE,1572758922
50,muisne,0.61,-80.02,74.93,86,100,5.14,EC,1572758922
51,mayo,63.59,-135.9,28.4,92,90,1.5,CA,1572758922
52,dikson,73.51,80.55,0.07,93,100,8.19,RU,1572758724
53,hobyo,5.35,48.53,84.58,61,93,11.9,SO,1572758785
54,mar del plata,-46.43,-67.52,58.98,48,100,27.92,AR,1572758696
55,orebro,59.27,15.21,36.0,86,100,10.29,SE,1572758923
56,cape town,-33.93,18.42,63.0,100,40,4.7,ZA,1572758489
57,chumikan,54.72,135.31,24.19,42,100,13.09,RU,1572758924
58,coahuayana,18.62,-100.35,70.63,92,70,2.1,MX,1572758924
59,puerto ayora,-0.74,-90.35,68.0,92,79,5.99,EC,1572758644
60,curvelo,-18.76,-44.43,68.13,82,4,6.93,BR,1572758924
61,tuatapere,-46.13,167.69,68.38,41,1,3.78,NZ,1572758739
62,sebaco,12.85,-86.1,64.54,98,70,4.88,NI,1572758925
63,shingu,33.72,135.99,71.6,56,75,11.41,JP,1572758772
64,evensk,61.92,159.24,28.31,78,100,9.26,RU,1572758925
65,nago,45.88,10.89,53.01,100,75,5.82,IT,1572758925
66,constitucion,23.99,-104.67,59.0,73,98,7.16,MX,1572758544
67,te anau,-45.41,167.72,59.23,61,15,6.82,NZ,1572758726
68,fortuna,40.6,-124.16,48.2,87,1,5.82,US,1572758707
69,banda aceh,5.56,95.32,86.05,62,91,7.05,ID,1572758775
70,chortomlyk,47.62,34.14,43.79,67,92,20.18,UA,1572758927
71,kibala,9.11,18.35,71.6,94,72,2.91,TD,1572758927
72,oulainen,64.27,24.8,33.01,97,96,3.0,FI,1572758927
73,batemans bay,-35.71,150.18,71.01,85,98,15.01,AU,1572758928
74,mataura,-46.19,168.86,65.62,56,0,9.06,NZ,1572758686
75,thompson,55.74,-97.86,19.4,92,75,5.82,CA,1572758550
76,pisco,-13.71,-76.2,63.0,82,93,11.41,PE,1572758786
77,nagycserkesz,47.96,21.55,53.6,87,75,10.29,HU,1572758929
78,codrington,-28.95,153.24,87.8,48,40,20.8,AU,1572758768
79,auki,12.18,6.51,73.22,64,3,4.36,NG,1572758930
80,saldanha,41.42,-6.55,48.99,75,82,17.36,PT,1572758930
81,georgetown,6.8,-58.16,75.2,100,20,2.24,GY,1572758688
82,albany,42.65,-73.75,37.99,74,20,2.55,US,1572758677
83,saint-augustin,45.63,-73.98,39.99,86,90,4.25,CA,1572758931
84,pokhara,28.21,83.99,83.16,43,0,2.26,NP,1572758872
85,jamestown,-33.21,138.6,66.36,34,0,14.81,AU,1572758678
86,kolyshley,52.7,44.54,32.0,65,63,9.33,RU,1572758931
87,hobart,-42.88,147.33,64.99,72,75,10.29,AU,1572758417
88,gorontalo,0.54,123.06,87.42,56,1,6.51,ID,1572758932
89,tasiilaq,65.61,-37.64,30.2,63,100,8.05,GL,1572758696
90,namtsy,62.72,129.66,17.6,57,40,4.47,RU,1572758932
91,meadow lake,54.13,-108.44,31.82,99,100,3.42,CA,1572758933
92,kaitangata,-46.28,169.85,58.14,62,0,10.58,NZ,1572758706
93,beyneu,45.32,55.19,33.4,95,100,19.84,KZ,1572758933
94,mandera,3.94,41.86,82.0,22,5,1.01,ET,1572758933
95,adrar,27.87,-0.29,60.8,48,0,4.7,DZ,1572758933
96,qaanaaq,77.48,-69.36,13.21,58,100,8.84,GL,1572758699
97,kloulklubed,7.04,134.26,82.4,78,90,9.17,PW,1572758644
98,hithadhoo,-0.6,73.08,82.38,66,28,1.99,MV,1572758551
99,port elizabeth,39.31,-74.98,46.0,76,1,4.7,US,1572758706
100,axim,4.87,-2.24,73.8,91,91,2.19,GH,1572758678
101,saint george,39.45,22.34,50.0,93,20,5.82,GR,1572758716
102,mahebourg,-20.41,57.7,75.0,83,75,17.22,MU,1572758738
103,port hedland,-20.31,118.58,100.4,8,0,11.41,AU,1572758794
104,ola,59.58,151.3,36.43,88,100,30.51,RU,1572758936
105,salalah,17.01,54.1,86.0,70,75,3.36,OM,1572758777
106,horizontina,-27.63,-54.31,73.0,79,47,3.0,BR,1572758936
107,saint-philippe,45.36,-73.48,41.0,86,90,4.7,CA,1572758713
108,nyrob,60.74,56.73,22.19,91,77,4.72,RU,1572758807
109,tual,-5.67,132.75,82.35,78,96,12.39,ID,1572758802
110,turayf,31.68,38.65,57.2,82,0,4.7,SA,1572758937
111,umea,63.83,20.26,24.8,79,0,6.93,SE,1572758811
112,khatanga,71.98,102.47,-11.13,98,92,6.22,RU,1572758702
113,kristiansund,63.12,7.73,35.6,64,0,25.28,NO,1572758773
114,isla vista,34.41,-119.86,61.0,29,1,4.36,US,1572758939
115,vao,59.1,26.19,40.1,98,100,7.11,EE,1572758814
116,ribeira grande,38.52,-28.7,61.0,82,99,9.64,PT,1572758681
117,xinqing,48.28,129.53,30.63,27,0,10.47,CN,1572758940
118,santa rosa,-36.62,-64.29,51.48,44,0,5.93,AR,1572758940
119,dongning,44.06,131.12,42.67,25,0,9.26,CN,1572758940
120,kariba,-16.53,28.78,85.71,31,0,6.8,ZW,1572758940
121,longyearbyen,78.22,15.63,12.2,72,40,17.22,NO,1572758734
122,kavieng,-2.57,150.8,81.52,80,100,15.12,PG,1572758741
123,waipawa,-39.94,176.59,70.0,70,9,5.01,NZ,1572758941
124,saskylakh,71.97,114.09,-2.21,98,100,5.21,RU,1572758678
125,kavaratti,10.57,72.64,81.55,71,0,5.01,IN,1572758768
126,merritt island,28.54,-80.67,77.0,100,90,9.17,US,1572758942
127,toora-khem,52.47,96.11,27.93,59,100,10.54,RU,1572758942
128,parfenyevo,58.48,43.41,31.75,91,100,12.33,RU,1572758942
129,guerrero negro,27.97,-114.04,67.69,41,56,7.11,MX,1572758737
130,new norfolk,-42.78,147.06,64.99,72,75,10.29,AU,1572758682
131,ajdabiya,30.75,20.22,65.41,76,0,5.48,LY,1572758943
132,haines junction,60.75,-137.51,29.79,98,100,3.04,CA,1572758788
133,san angelo,31.46,-100.44,44.01,60,1,4.7,US,1572758841
134,bredasdorp,-34.53,20.04,60.8,67,0,6.93,ZA,1572758709
135,fort nelson,58.81,-122.69,28.4,92,90,8.05,CA,1572758944
136,bonthe,7.53,-12.5,76.14,81,51,5.46,SL,1572758944
137,harper,30.3,-99.24,51.01,60,1,3.36,US,1572758944
138,hasaki,35.73,140.83,66.2,82,75,2.24,JP,1572758684
139,ozernovskiy,51.5,156.52,39.42,77,85,11.79,RU,1572758945
140,sitka,37.17,-99.65,39.99,48,0,11.01,US,1572758721
141,vilcun,-38.65,-72.23,42.8,100,1,2.24,CL,1572758945
142,warmbad,50.67,13.08,55.0,87,100,8.05,DE,1572758946
143,fukuma,33.77,130.47,71.01,60,75,2.24,JP,1572758946
144,tabuk,17.41,121.44,86.68,66,82,3.47,PH,1572758946
145,fairbanks,64.84,-147.72,21.2,100,90,3.36,US,1572758432
146,arraial do cabo,-22.97,-42.02,72.77,88,7,26.11,BR,1572758679
147,geraldton,49.72,-86.95,24.8,85,90,6.93,CA,1572758713
148,colomi,-17.34,-65.87,62.6,45,3,4.7,BO,1572758947
149,rawson,-43.3,-65.11,57.38,49,28,12.41,AR,1572758783
150,ranchi,23.37,85.33,75.2,69,40,3.36,IN,1572758948
151,merke,42.87,73.19,54.77,65,100,6.02,KZ,1572758948
152,cap malheureux,-19.98,57.61,75.0,83,75,17.22,MU,1572758949
153,pangai,-19.8,-174.35,72.77,74,100,20.94,TO,1572758949
154,umm lajj,25.02,37.27,78.64,35,0,5.86,SA,1572758746
155,mantua,45.16,10.79,53.01,100,75,5.82,IT,1572758950
156,coihaique,-45.58,-72.07,53.6,54,88,6.93,CL,1572758790
157,nanortalik,60.14,-45.24,33.06,63,0,1.59,GL,1572758704
158,alice springs,-23.7,133.88,82.4,20,1,16.11,AU,1572758683
159,klaksvik,62.23,-6.59,41.0,65,87,21.92,FO,1572758550
160,chuguyevka,44.17,133.87,32.7,44,0,7.29,RU,1572758951
161,panjab,34.38,67.02,37.71,53,67,5.23,AF,1572758781
162,barrow,-38.31,-60.23,44.92,69,0,6.91,AR,1572758728
163,santa barbara,34.42,-119.7,61.0,29,1,7.09,US,1572758949
164,esperance,-33.86,121.89,68.0,45,29,18.34,AU,1572758715
165,horqueta,-23.34,-57.05,85.19,41,92,4.34,PY,1572758952
166,lagoa,37.14,-8.45,64.99,82,20,14.99,PT,1572758695
167,novoagansk,61.94,76.66,11.21,95,82,6.6,RU,1572758953
168,amarante do maranhao,-5.57,-46.74,73.9,82,29,4.25,BR,1572758953
169,chokurdakh,70.62,147.9,-6.74,99,76,7.23,RU,1572758720
170,grindavik,63.84,-22.43,41.0,58,100,10.29,IS,1572758733
171,leningradskiy,69.38,178.42,11.37,75,8,9.37,RU,1572758735
172,nome,30.04,-94.42,51.01,93,1,4.97,US,1572758764
173,springbok,-29.67,17.88,66.2,22,19,3.36,ZA,1572758955
174,airai,-8.93,125.41,85.08,35,9,9.17,TL,1572758697
175,vostok,46.45,135.83,25.41,73,83,5.59,RU,1572758955
176,edeia,-17.34,-49.93,72.86,76,99,5.01,BR,1572758955
177,constantine,36.36,6.61,59.0,77,11,9.17,DZ,1572758956
178,moree,-29.46,149.84,89.6,27,40,18.34,AU,1572758956
179,suntar,62.16,117.65,30.42,73,100,10.67,RU,1572758956
180,goa velha,15.43,73.87,84.2,66,40,3.36,IN,1572758956
181,kruisfontein,-34.0,24.73,63.73,70,18,17.18,ZA,1572758542
182,maniitsoq,65.42,-52.9,28.47,52,50,6.29,GL,1572758680
183,pevek,69.7,170.27,13.33,78,34,13.62,RU,1572758549
184,sorland,67.67,12.69,40.48,64,24,18.14,NO,1572758687
185,faanui,-16.48,-151.75,81.52,81,50,8.41,PF,1572758714
186,aklavik,68.22,-135.01,23.0,100,90,3.36,CA,1572758779
187,kichera,55.93,110.1,31.06,88,100,1.63,RU,1572758958
188,gizo,31.8,34.94,66.2,72,20,1.12,IL,1572758958
189,havelock,34.88,-76.9,53.6,71,1,11.41,US,1572758780
190,blyth,55.12,-1.5,48.0,100,75,13.87,GB,1572758959
191,comodoro rivadavia,-45.87,-67.48,60.8,36,100,31.09,AR,1572758751
192,ponta delgada,37.73,-25.67,64.4,72,75,3.36,PT,1572758959
193,duliagaon,27.37,95.32,82.4,54,0,5.82,IN,1572758960
194,srednekolymsk,67.46,153.71,-0.57,96,93,5.39,RU,1572758700
195,cururupu,-1.82,-44.87,73.8,96,25,4.27,BR,1572758960
196,grand gaube,-20.01,57.66,75.0,83,75,17.22,MU,1572758741
197,baiyin,36.55,104.13,55.4,30,0,4.47,CN,1572758961
198,port lincoln,-34.72,135.86,63.01,45,62,16.46,AU,1572758961
199,santa elena,-2.23,-80.86,71.49,88,100,14.7,EC,1572758961
200,rawlins,41.79,-107.24,35.6,68,1,9.04,US,1572758961
201,quatre cocos,-20.21,57.76,75.0,83,75,17.22,MU,1572758663
202,lazaro cardenas,28.39,-105.62,55.99,81,100,1.99,MX,1572758794
203,fort-shevchenko,44.51,50.26,38.98,55,0,16.26,KZ,1572758963
204,mbeya,-8.91,33.47,70.56,46,12,5.32,TZ,1572758963
205,cherskiy,68.75,161.3,13.53,85,100,7.94,RU,1572758690
206,invermere,50.51,-116.03,28.0,75,78,2.51,CA,1572758744
207,prince george,53.92,-122.75,37.99,100,1,9.17,CA,1572758761
208,sambava,-14.27,50.17,75.65,88,77,4.21,MG,1572758964
209,bethel,60.79,-161.76,24.8,85,1,17.22,US,1572758740
210,katra,32.99,74.93,71.6,88,75,4.7,IN,1572758965
211,lavrentiya,65.58,-170.99,23.27,82,93,3.11,RU,1572758697
212,henties bay,-22.12,14.28,64.99,81,9,1.01,NA,1572758776
213,bubaque,11.28,-15.83,83.17,66,100,2.26,GW,1572758698
214,vardo,39.62,-77.74,41.0,77,1,3.36,US,1572758727
215,saint-francois,46.42,3.91,55.4,71,100,8.05,FR,1572758762
216,saint-denis,48.94,2.36,52.0,93,90,9.17,FR,1572758966
217,franco da rocha,-23.33,-46.72,72.0,94,75,1.12,BR,1572758967
218,pinega,64.7,43.39,20.14,72,88,12.97,RU,1572758967
219,afua,5.27,7.87,74.26,91,93,1.03,NG,1572758968
220,porto novo,-23.68,-45.44,68.0,88,60,2.24,BR,1572758968
221,le port,42.87,1.37,57.0,63,71,5.99,FR,1572758785
222,nachingwea,-10.37,38.76,83.71,55,77,3.62,TZ,1572758968
223,hirado,33.32,129.49,70.0,72,99,2.24,JP,1572758969
224,ouadda,8.07,22.4,73.29,61,85,2.51,CF,1572758969
225,ponta do sol,-20.63,-46.0,64.76,93,51,4.23,BR,1572758679
226,giyani,-23.32,30.73,86.2,37,7,1.61,ZA,1572758969
227,karratha,-20.74,116.85,78.51,56,0,12.37,AU,1572758737
228,flinders,-34.58,150.85,80.01,50,75,24.16,AU,1572758748
229,homer,59.64,-151.54,42.8,93,90,4.7,US,1572758970
230,inhambane,-23.87,35.38,77.0,78,20,6.93,MZ,1572758970
231,scarborough,54.28,-0.41,46.0,100,54,6.93,GB,1572758970
232,kifri,34.69,44.96,75.0,34,43,4.94,IQ,1572758971
233,leesburg,39.12,-77.56,42.8,68,1,3.36,US,1572758971
234,bambous virieux,-20.34,57.76,75.0,83,75,17.22,MU,1572758708
235,tiksi,71.64,128.87,-1.86,94,100,3.4,RU,1572758695
236,eregli,37.51,34.05,48.49,35,0,1.86,TR,1572758972
237,palmer,-34.85,139.16,68.0,51,75,17.22,AU,1572758709
238,shelburne,44.08,-80.2,37.99,93,40,6.93,CA,1572758688
239,sao filipe,14.9,-24.5,76.41,76,0,13.11,CV,1572758766
240,fez,34.03,-5.02,66.2,68,75,11.41,MA,1572758973
241,belyy yar,53.6,91.39,32.0,42,25,13.42,RU,1572758973
242,manzhouli,49.6,117.43,35.24,27,0,8.95,CN,1572758973
243,bandarbeyla,9.49,50.81,81.3,77,100,11.97,SO,1572758974
244,methoni,36.82,21.7,61.0,76,20,5.82,GR,1572758974
245,kijang,35.24,129.21,69.8,46,98,5.82,KR,1572758745
246,cutro,39.04,16.98,57.2,93,53,3.36,IT,1572758974
247,padang,-0.92,100.36,80.42,65,42,5.21,ID,1572758975
248,aitape,-3.15,142.36,83.7,73,98,9.06,PG,1572758975
249,verkhnevilyuysk,63.45,120.31,29.32,78,71,9.31,RU,1572758975
250,kulhudhuffushi,6.62,73.07,82.69,66,64,3.69,MV,1572758975
251,namibe,-15.19,12.15,71.76,78,65,1.39,AO,1572758690
252,chuy,-33.69,-53.46,55.31,85,69,7.49,UY,1572758739
253,kahului,20.89,-156.47,73.99,1,34,4.0,US,1572758743
254,batagay-alyta,67.8,130.41,-9.8,99,100,6.85,RU,1572758976
255,ko samui,9.54,99.94,87.8,70,20,5.82,TH,1572758712
256,aleksandrov gay,50.14,48.57,30.15,43,0,4.34,RU,1572758977
257,linxia,35.6,103.21,51.82,24,0,6.26,CN,1572758977
258,solnechnyy,50.72,136.64,29.73,65,99,3.58,RU,1572758802
259,areosa,41.72,-8.86,61.0,82,75,8.05,PT,1572758977
260,birjand,32.86,59.22,62.6,25,0,9.17,IR,1572758718
261,kaeo,-35.1,173.78,77.0,53,78,1.99,NZ,1572758978
262,tuktoyaktuk,69.44,-133.03,24.8,92,90,7.36,CA,1572758546
263,atambua,-9.11,124.89,86.61,52,3,7.67,ID,1572758721
264,castro,-42.48,-73.76,46.4,100,90,10.29,CL,1572758679
265,hovd,63.83,10.7,33.01,92,90,8.05,NO,1572758979
266,waingapu,-9.65,120.26,82.51,73,0,10.22,ID,1572758979
267,husavik,50.56,-96.99,30.99,91,92,6.96,CA,1572758747
268,port hueneme,34.15,-119.2,61.0,76,1,6.93,US,1572758864
269,novosil,52.97,37.04,34.56,70,60,20.22,RU,1572758980
270,garissa,-0.46,39.64,82.51,57,51,17.34,KE,1572758980
271,san isidro,10.02,-84.06,70.0,83,78,8.05,CR,1572758980
272,mets masrik,40.22,45.77,29.1,59,0,0.81,AM,1572758981
273,ca mau,9.18,105.15,83.84,81,88,4.23,VN,1572758981
274,emba,34.81,32.42,64.4,72,20,9.17,CY,1572758981
275,namatanai,-3.66,152.44,79.41,83,100,12.28,PG,1572758981
276,linhares,-19.38,-40.06,68.4,93,0,2.55,BR,1572758982
277,cidreira,-30.17,-50.22,70.11,94,96,3.36,BR,1572758982
278,hami,42.84,93.51,61.21,17,99,4.07,CN,1572758765
279,komsomolskiy,67.55,63.78,-2.24,99,88,6.85,RU,1572758740
280,isawa,11.56,10.22,76.1,39,40,1.72,NG,1572758983
281,juri,35.75,128.62,69.8,49,75,5.82,KR,1572758983
282,san matias,-16.36,-58.4,73.99,81,3,5.88,BO,1572758983
283,avarua,-21.21,-159.78,75.2,60,100,16.11,CK,1572758556
284,mitsamiouli,-11.38,43.28,84.2,70,40,4.7,KM,1572758984
285,clyde river,70.47,-68.59,21.2,73,75,5.82,CA,1572758709
286,biak,-0.91,122.88,82.92,74,49,13.76,ID,1572758984
287,grimstad,66.94,13.72,28.4,92,20,10.29,NO,1572758984
288,alofi,-19.06,-169.92,73.4,64,99,11.41,NU,1572758631
289,taoudenni,22.68,-3.98,71.04,33,50,6.58,ML,1572758985
290,raudeberg,61.99,5.14,39.99,55,0,9.17,NO,1572758985
291,oranjestad,12.52,-70.03,82.4,83,20,9.17,AW,1572758986
292,fonte boa,-2.51,-66.09,72.75,97,100,0.43,BR,1572758986
293,pokaran,26.93,71.92,86.47,29,0,4.41,IN,1572758986
294,viru,57.74,26.74,39.2,93,100,6.93,EE,1572758986
295,derzhavinsk,51.1,66.31,32.36,52,100,15.59,KZ,1572758986
296,egvekinot,66.32,-179.17,6.66,95,95,2.98,RU,1572758987
297,nerchinskiy zavod,51.31,119.61,32.58,26,0,7.7,RU,1572758987
298,rancho palos verdes,33.75,-118.37,64.4,63,1,4.34,US,1572758987
299,suicheng,33.9,117.93,72.73,30,0,7.76,CN,1572758791
300,richards bay,-28.77,32.06,72.64,85,48,26.15,ZA,1572758772
301,ancud,-41.87,-73.83,46.4,100,90,10.29,CL,1572758988
302,zhuhai,40.71,112.04,55.4,54,0,2.24,CN,1572758988
303,ati,13.21,18.34,80.44,18,93,8.61,TD,1572758989
304,college,64.86,-147.8,21.2,100,90,3.36,US,1572758707
305,villa del rosario,-31.55,-63.53,66.0,55,75,8.05,AR,1572758989
306,necochea,-38.55,-58.74,44.67,92,0,6.76,AR,1572758820
307,punta alta,-27.46,-55.82,77.0,73,40,11.41,AR,1572758698
308,pangnirtung,66.15,-65.72,19.63,90,100,5.93,CA,1572758723
309,katsuura,33.93,134.5,68.0,72,75,9.17,JP,1572758685
310,ambulu,-8.35,113.61,79.5,81,36,14.36,ID,1572758990
311,mount isa,-20.73,139.49,98.6,16,90,12.75,AU,1572758768
312,sharjah,25.36,55.39,84.2,48,0,5.82,AE,1572758766
313,lichinga,-13.3,35.25,76.96,56,4,8.77,MZ,1572758991
314,suez,29.97,32.54,71.1,53,0,2.46,EG,1572758725
315,gat,14.69,-16.54,77.0,61,3,2.24,SN,1572758791
316,dudinka,69.41,86.18,-16.61,75,96,4.47,RU,1572758992
317,shaunavon,49.65,-108.41,34.59,85,100,8.7,CA,1572758992
318,viedma,-40.81,-62.99,52.99,53,0,17.16,AR,1572758992
319,norman wells,65.28,-126.83,15.8,85,75,4.7,CA,1572758797
320,athabasca,54.72,-113.29,33.26,97,100,10.02,CA,1572758993
321,port blair,11.67,92.75,82.92,72,0,11.27,IN,1572758812
322,okha,53.59,142.95,39.09,94,84,7.45,RU,1572758994
323,claresholm,50.02,-113.58,41.0,56,75,24.16,CA,1572758994
324,dauriya,49.93,116.85,38.97,19,0,10.22,RU,1572758994
325,nadym,65.53,72.51,4.21,89,39,9.26,RU,1572758995
326,itarema,-2.92,-39.92,75.6,83,25,5.26,BR,1572758770
327,bosaso,11.28,49.18,84.2,79,20,10.29,SO,1572758995
328,provideniya,64.42,-173.23,17.92,88,92,1.23,RU,1572758702
329,de aar,-30.65,24.01,64.4,15,50,1.12,ZA,1572758995
330,madison heights,42.49,-83.11,37.99,93,90,4.7,US,1572758996
331,bathsheba,13.22,-59.52,80.6,83,40,13.87,BB,1572758744
332,narsaq,60.91,-46.05,28.4,54,40,2.24,GL,1572758716
333,anloga,5.79,0.9,78.01,79,100,4.38,GH,1572758997
334,boguchany,58.38,97.46,26.85,63,84,12.08,RU,1572758759
335,yuzhou,34.16,113.47,64.4,52,0,13.42,CN,1572758997
336,beloha,-25.17,45.06,82.29,38,83,6.51,MG,1572758760
337,hamilton,43.26,-79.87,39.2,92,20,9.17,CA,1572758461
338,talnakh,69.49,88.39,-16.61,75,100,4.47,RU,1572758707
339,amravati,20.93,77.76,82.18,56,0,4.21,IN,1572758998
340,scranton,41.41,-75.66,37.4,69,1,4.21,US,1572758998
341,kangaatsiaq,68.31,-53.46,27.05,69,100,7.96,GL,1572758813
342,altay,47.83,88.13,42.66,61,32,2.66,CN,1572758999
343,saint-joseph,43.56,6.97,60.8,93,100,3.36,FR,1572758781
344,oeiras do para,-2.0,-49.85,76.12,87,77,4.09,BR,1572759000
345,sisimiut,66.94,-53.67,21.83,64,100,5.3,GL,1572758767
346,manicore,-5.81,-61.3,72.19,98,97,1.88,BR,1572759000
347,mankera,13.01,5.07,76.62,43,36,4.56,NG,1572759000
348,marsh harbour,26.54,-77.06,78.75,69,0,8.61,BS,1572759001
349,kathu,-27.7,23.05,79.83,20,22,10.18,ZA,1572759001
350,casian,44.5,28.48,55.0,93,96,10.29,RO,1572759001
351,banjar,-7.37,108.54,79.9,74,97,7.25,ID,1572758689
352,ames,42.03,-93.62,37.99,75,90,4.7,US,1572758885
353,udachnyy,66.42,112.4,17.6,92,90,6.71,RU,1572759002
354,pilar,-34.46,-58.91,62.6,51,0,6.93,AR,1572758816
355,vila velha,-3.71,-38.6,80.6,74,75,11.41,BR,1572758765
356,lasa,34.92,32.53,64.4,72,20,9.17,CY,1572758801
357,marzuq,14.4,46.47,77.67,32,100,7.94,YE,1572758694
358,whitehorse,60.72,-135.06,33.8,86,75,2.46,CA,1572759003
359,portland,43.66,-70.25,43.0,86,20,4.7,US,1572758757
360,pathein,16.78,94.73,85.05,75,5,0.89,MM,1572758757
361,anadyr,64.73,177.51,19.4,85,75,4.47,RU,1572758801
362,erzin,36.95,36.2,57.99,71,40,5.82,TR,1572759005
363,sechura,-5.56,-80.82,63.59,89,61,11.03,PE,1572759005
364,broken hill,-31.97,141.45,69.8,60,40,8.05,AU,1572758736
365,aberdeen,46.98,-123.82,50.0,100,40,2.26,US,1572759006
366,chicama,-7.84,-79.15,62.6,88,75,6.93,PE,1572759006
367,sibiti,-3.69,13.35,71.42,86,93,1.36,CG,1572758773
368,kenora,49.76,-94.48,30.2,86,90,3.36,CA,1572758692
369,katobu,-4.94,122.53,91.22,46,52,3.04,ID,1572759006
370,pringsewu,-5.36,104.98,84.92,56,91,7.36,ID,1572758681
371,konotop,51.24,33.21,41.92,80,100,21.68,UA,1572759007
372,bitkine,11.98,18.21,83.08,35,90,2.33,TD,1572759007
373,paamiut,61.99,-49.67,30.92,40,0,4.52,GL,1572758792
374,mbandaka,0.05,18.26,73.98,92,98,3.13,CD,1572759008
375,naze,5.43,7.07,73.4,100,75,0.74,NG,1572758817
376,jumla,29.28,82.18,59.13,37,18,5.39,NP,1572758786
377,oussouye,12.49,-16.54,77.61,82,79,2.24,SN,1572759008
378,isangel,-19.55,169.27,82.4,58,75,16.11,VU,1572758695
379,caconda,-13.73,15.06,69.15,62,43,3.96,AO,1572759009
380,salta,-24.79,-65.41,69.8,100,75,1.86,AR,1572758712
381,nuuk,64.17,-51.74,30.2,68,7,8.05,GL,1572759010
382,thinadhoo,0.53,72.93,81.57,75,90,4.18,MV,1572758706
383,skjervoy,70.03,20.97,36.25,77,100,21.18,NO,1572759010
384,redwater,53.95,-113.11,39.2,100,90,11.41,CA,1572759011
385,ostrovnoy,68.05,39.51,24.1,84,100,27.78,RU,1572758729
386,roebourne,-20.77,117.15,97.34,8,0,14.52,AU,1572759011
387,pitimbu,-7.47,-34.81,75.2,88,20,5.82,BR,1572758804
388,correia pinto,-27.59,-50.36,62.96,99,100,0.45,BR,1572759012
389,tazmalt,36.39,4.4,64.4,68,40,4.7,DZ,1572759012
390,hofn,64.25,-15.21,39.56,77,100,30.36,IS,1572758725
391,igarka,67.47,86.57,-8.2,93,100,7.81,RU,1572759013
392,saint-leu,-21.15,55.28,78.8,54,41,26.4,RE,1572759013
393,murwara,23.85,80.4,85.68,47,74,0.18,IN,1572758882
394,narrabri,-30.33,149.78,75.2,57,90,23.04,AU,1572759014
395,paita,-5.09,-81.11,65.25,82,53,9.42,PE,1572759014
396,burns lake,54.23,-125.76,38.64,97,100,2.08,CA,1572759014
397,acapulco,16.86,-99.88,82.4,83,75,5.82,MX,1572759014
398,sabang,13.8,121.11,86.0,81,96,3.0,PH,1572759014
399,eyl,7.98,49.82,82.26,77,95,10.11,SO,1572759015
400,muborak,39.25,65.15,68.04,45,0,9.33,UZ,1572759015
401,ugoofaaru,5.67,73.0,83.14,65,16,4.41,MV,1572759015
402,nur,52.67,22.32,45.28,82,82,8.5,PL,1572759015
403,ciamis,-7.33,108.35,79.9,74,97,7.25,ID,1572759016
404,riyadh,24.63,46.72,77.0,44,3,9.17,SA,1572758637
405,santiago,16.69,121.54,83.53,75,75,2.98,PH,1572758764
406,hambantota,6.12,81.12,84.2,83,40,3.36,LK,1572758759
407,olinda,-37.84,145.39,68.0,63,75,14.99,AU,1572759017
408,kawalu,-7.38,108.21,73.74,87,100,5.19,ID,1572759017
409,beisfjord,68.38,17.6,32.0,91,75,19.46,NO,1572759018
410,sayat,38.78,63.88,64.4,68,0,6.93,TM,1572759018
411,baker city,44.77,-117.83,42.8,63,1,3.36,US,1572759018
412,cochrane,-47.25,-72.57,30.0,99,100,7.0,CL,1572759018
413,kieta,-6.22,155.63,77.5,89,100,8.01,PG,1572758751
414,grand-santi,4.27,-54.38,71.49,98,37,0.81,GF,1572759019
415,starobaltachevo,56.0,55.92,23.88,93,99,10.13,RU,1572759019
416,kahta,37.78,38.62,48.2,45,0,5.82,TR,1572759019
417,zheleznodorozhnyy,55.75,38.0,39.0,74,40,13.42,RU,1572759019
418,markova,52.21,104.21,37.4,93,90,13.42,RU,1572759020
419,peniche,39.36,-9.38,63.0,88,75,11.41,PT,1572759020
420,san cristobal,14.68,-86.92,65.34,98,52,3.62,HN,1572758691
421,cayenne,4.94,-52.33,75.2,94,20,3.78,GF,1572758713
422,aykhal,65.95,111.51,17.6,92,90,6.71,RU,1572759021
423,newport,51.59,-3.0,50.0,93,90,8.05,GB,1572759001
424,nandu,31.44,119.33,75.2,44,40,2.24,CN,1572759022
425,petropavl,54.87,69.13,24.8,79,75,8.95,KZ,1572759022
426,ormara,25.21,64.64,84.02,67,0,7.85,PK,1572759022
427,churapcha,62.0,132.43,10.58,83,78,10.36,RU,1572759022
428,taltal,-25.41,-70.49,52.3,86,53,3.83,CL,1572758772
429,manta,45.1,24.1,45.57,90,100,1.54,RO,1572759023
430,vitoria do mearim,-3.46,-44.87,74.12,95,63,2.64,BR,1572759023
431,omboue,-1.57,9.26,73.38,96,100,4.12,GA,1572759023
432,ananindeua,-1.37,-48.4,77.0,88,100,6.93,BR,1572759024
433,ambon,47.55,-2.56,52.0,93,83,23.04,FR,1572759024
434,muros,42.77,-9.06,61.0,93,75,9.17,ES,1572759024
435,gladstone,-23.84,151.26,77.0,69,90,12.75,AU,1572759024
436,lexington,38.05,-84.5,37.99,86,1,6.55,US,1572759025
437,bilibino,68.06,166.44,5.41,89,50,2.53,RU,1572759025
438,businga,3.34,20.89,73.38,94,100,0.34,CD,1572759025
439,yuksekova,37.57,44.29,41.0,92,90,2.24,TR,1572759026
440,yar-sale,66.83,70.83,5.7,89,98,9.48,RU,1572758711
441,paoua,7.24,16.43,73.06,78,100,2.37,CF,1572759026
442,camopi,3.17,-52.33,70.88,99,61,1.99,GF,1572759026
443,kinablangan,7.69,126.55,81.18,82,80,3.42,PH,1572759027
444,taksimo,56.36,114.84,14.43,85,95,1.9,RU,1572759027
445,camacha,33.08,-16.33,71.6,77,40,13.87,PT,1572758729
446,naron,43.52,-8.15,57.0,71,20,10.29,ES,1572759027
447,yichun,47.72,128.88,30.63,23,0,6.04,CN,1572759028
448,gawler,-34.6,138.75,68.0,51,75,17.22,AU,1572759028
449,alyangula,-13.85,136.42,91.4,52,44,11.41,AU,1572759028
450,luderitz,-26.65,15.16,62.6,42,0,4.7,NA,1572758757
451,bayangol,48.91,106.09,48.36,50,0,8.12,MN,1572759029
452,covington,35.56,-89.65,41.0,93,1,3.49,US,1572759029
453,darnah,32.77,22.64,70.75,66,0,5.37,LY,1572758692
454,urucara,-2.54,-57.76,76.23,64,38,1.68,BR,1572759030
455,yerbogachen,61.28,108.01,19.45,68,72,15.19,RU,1572759030
456,zhezkazgan,47.8,67.71,37.4,44,90,17.9,KZ,1572758730
457,fershampenuaz,53.52,59.82,20.37,71,94,4.83,RU,1572759030
458,ilulissat,69.22,-51.1,19.4,67,90,2.24,GL,1572758698
459,warri,5.52,5.75,75.33,92,63,1.59,NG,1572758880
460,ruidoso,33.33,-105.67,45.0,25,1,8.05,US,1572759031
461,sterling,39.0,-77.4,42.8,68,1,3.36,US,1572759031
462,christchurch,-43.53,172.64,79.0,49,12,11.41,NZ,1572758957
463,mwene-ditu,-7.01,23.45,70.65,82,100,3.91,CD,1572759032
464,kendari,-3.99,122.52,90.03,48,69,8.7,ID,1572759032
465,bria,6.54,21.99,73.36,76,41,1.74,CF,1572759032
466,touros,-5.2,-35.46,73.4,94,40,4.7,BR,1572758768
467,pelotas,-31.77,-52.34,66.0,92,100,5.99,BR,1572758824
468,camapua,-19.53,-54.04,80.13,46,22,1.25,BR,1572759033
469,torrington,42.06,-104.18,28.99,74,1,3.65,US,1572759033
470,koubia,11.59,-11.89,64.76,87,31,0.78,GN,1572759034
471,ahipara,-35.17,173.16,60.8,77,90,18.12,NZ,1572758706
472,mendi,9.8,35.1,67.08,87,88,4.07,ET,1572759035
473,beja,38.02,-7.87,60.8,87,40,12.75,PT,1572759035
474,kokopo,-4.34,152.27,79.21,86,100,15.37,PG,1572759036
475,tabou,4.42,-7.36,73.24,95,3,2.24,CI,1572759036
476,bichura,50.59,107.6,49.87,50,5,4.92,RU,1572759036
477,bay saint louis,30.31,-89.33,45.0,81,1,4.7,US,1572759036
478,morant bay,17.88,-76.41,80.6,69,20,5.82,JM,1572759037
479,lovozero,68.01,35.02,23.52,95,100,8.66,RU,1572759037
480,oksfjord,70.24,22.35,21.2,78,75,4.7,NO,1572759037
481,bud,62.91,6.91,37.4,51,0,20.8,NO,1572759038
482,san antonio,-33.58,-71.61,47.88,82,0,1.83,CL,1572759038
483,taunsa,30.7,70.65,79.02,39,8,3.69,PK,1572759038
484,vryburg,-26.96,24.73,75.63,23,0,4.97,ZA,1572759038
485,weiser,44.25,-116.97,32.0,54,1,6.93,US,1572759039
486,avera,33.19,-82.53,50.0,80,1,4.7,US,1572758773
487,santa isabel do rio negro,-0.41,-65.02,72.39,94,90,0.38,BR,1572759039
488,ryotsu,38.08,138.43,62.6,59,100,6.93,JP,1572759039
489,marquette,46.54,-87.4,32.0,79,1,8.05,US,1572758899
490,nizwa,22.93,57.53,76.69,44,84,4.25,OM,1572759040
491,tamandare,-8.28,-70.75,70.29,98,58,1.97,BR,1572758775
492,sulangan,11.14,123.72,83.43,73,79,5.32,PH,1572759041
493,oskarshamn,57.26,16.44,46.99,100,90,3.36,SE,1572759041
494,juneau,58.3,-134.42,46.0,100,90,9.17,US,1572758815
495,chapadinha,-3.74,-43.35,73.49,94,17,5.01,BR,1572759041
496,bowen,-20.01,148.25,86.0,61,40,12.75,AU,1572759042
497,ballina,54.11,-9.15,51.01,96,84,0.43,IE,1572758712
498,tokur,53.13,132.9,21.63,61,3,4.03,RU,1572759042
499,jiaocheng,24.68,116.14,84.38,35,0,7.54,CN,1572759042
500,teguise,29.06,-13.56,71.6,88,14,12.75,ES,1572759042
501,mount gambier,-37.83,140.78,60.8,51,40,21.92,AU,1572758806
502,luwuk,-0.95,122.79,82.92,74,49,13.76,ID,1572759043
503,xam nua,20.42,104.04,75.16,60,88,3.33,LA,1572759043
504,conde,-11.81,-37.61,78.01,74,89,12.82,BR,1572759044
505,barentu,15.11,37.59,84.6,36,46,12.39,ER,1572759044
506,grabouw,-34.15,19.01,63.0,100,40,4.7,ZA,1572759044
507,lethem,3.38,-59.8,78.67,72,60,8.25,GY,1572759044
508,huarmey,-10.07,-78.15,60.96,87,100,2.71,PE,1572758723
509,vila,45.18,8.4,51.01,100,75,4.7,IT,1572758764
510,keningau,5.33,116.16,89.6,66,75,6.93,MY,1572759046
511,mauganj,24.67,81.88,84.9,38,26,6.22,IN,1572759046
512,seoul,37.57,126.98,69.8,42,1,5.82,KR,1572759037
513,soyo,-6.13,12.37,77.0,94,40,3.36,AO,1572759046
514,porto velho,-8.75,-63.87,75.2,94,20,1.68,BR,1572759046
515,bereda,43.27,-7.54,55.99,71,20,10.29,ES,1572759047
516,caravelas,-17.73,-39.27,69.1,92,15,4.59,BR,1572758752
517,coquimbo,-29.95,-71.34,55.4,87,86,2.24,CL,1572759047
518,lorengau,-2.02,147.27,85.42,71,100,16.2,PG,1572759047
519,vila franca do campo,37.72,-25.43,64.4,72,75,3.36,PT,1572758809
520,champerico,16.38,-93.6,66.2,93,5,3.36,MX,1572758678
521,neuquen,-38.95,-68.06,55.4,18,0,2.24,AR,1572758757
522,cockburn town,21.46,-71.14,80.42,70,0,13.22,TC,1572759048
523,roma,41.89,12.48,64.4,88,46,6.93,IT,1572758700
524,chirongui,-12.93,45.15,82.4,69,0,5.82,YT,1572759049
525,bhola,32.66,73.89,75.2,78,40,5.95,PK,1572759049
526,dukat,40.25,19.57,68.85,76,99,27.34,AL,1572759049
527,conceicao do araguaia,-8.26,-49.26,77.95,74,30,1.23,BR,1572759050
528,cabo san lucas,22.89,-109.91,80.01,73,5,4.7,MX,1572758735
529,lodwar,3.12,35.6,85.01,41,18,13.6,KE,1572759050
530,havre-saint-pierre,50.23,-63.6,33.8,70,90,8.05,CA,1572758798
531,assiniboia,49.63,-105.99,30.49,93,96,3.65,CA,1572759051
532,ahuimanu,21.44,-157.84,80.6,69,40,4.7,US,1572759051
533,ambovombe,-25.18,46.09,81.64,39,97,12.82,MG,1572759051
534,bodden town,19.28,-81.25,82.0,81,10,8.99,KY,1572759051
535,athens,37.98,23.73,59.0,81,20,2.24,GR,1572759052
536,tripoli,37.51,22.37,61.0,76,20,5.82,GR,1572759052
537,cartagena,37.63,-1.0,70.0,46,100,14.99,ES,1572759052
538,dibulla,11.27,-73.31,81.39,78,100,9.46,CO,1572759052
539,baghdad,33.3,44.38,69.8,52,75,3.36,IQ,1572759026
540,almaznyy,48.03,40.04,26.6,86,91,11.18,RU,1572758685
